stop_id,stop_code,stop_name,stop_desc,stop_lat,stop_lon,zone_id
01010449,,Boise & Law NWC,,43.5742705889867,-116.16393657816482,zoneforstop_VRT_2805
01050903,,Ten Mile & Vanguard SWC,,43.59798877404715,-116.4342442758611,zoneforstop_VRT_4045
01010714,,Emerald & Wilson NWC,,43.61168237476889,-116.23504376793345,zoneforstop_VRT_3001
14050102,,Idaho Center & East Gate NEM,,43.60260868760029,-116.51306251495922,zoneforstop_VRT_3178
01010717,,Emerald & Garden SEC,,43.611509999910005,-116.23812953430877,zoneforstop_VRT_4222
01010301,,Five Mile & Fairview SWC,,43.61822571603109,-116.31441431768006,zoneforstop_VRT_3131
01010910,,Vinnell @ Social Security NEM,,43.59252282983037,-116.2858957354266,zoneforstop_VRT_2821
01010520,,Overland & Orchard SEC,,43.589674197888634,-116.24316435828032,zoneforstop_VRT_4230
01010689,,Roosevelt & Albion NWC,,43.599007838963765,-116.23366427796591,zoneforstop_VRT_769
01050902,,Overland & Locust Grove NWC,,43.59041726716767,-116.37482140125056,zoneforstop_VRT_4023
14050378,,12th & Lake Lowell NWC,,43.56158345496244,-116.57309258903682,zoneforstop_VRT_1756
14010085,,Chicago & 16th SEC,,43.6629347083619,-116.67556773514431,zoneforstop_VRT_3793
01010253,,Maple Grove & Shellie SEC,,43.62208058835268,-116.2940545076273,zoneforstop_VRT_1429
14050104,,Northside & 6th NWC,,43.59850582812749,-116.57330492356853,zoneforstop_VRT_1690
01010854,,Cole & Hummel SEC,,43.59707078317228,-116.27405572603487,zoneforstop_VRT_2834
01010114,,1st & Bannock NEC,,43.61304637592007,-116.19355349951726,zoneforstop_VRT_2895
01010456,,Bergeson & Apple NWC,,43.56792000009,-116.17378107423883,zoneforstop_VRT_4211
01010305,,Five Mile & Lupine SEC,,43.6242565135319,-116.31411566984912,zoneforstop_VRT_1333
01010869,,Barrister & Cole NEC,,43.607052932978775,-116.27386828352387,zoneforstop_VRT_3011
14010056,,Chicago & 16th NWC,,43.663216136454544,-116.67561687058873,zoneforstop_VRT_3787
01010108,,Capitol & Myrtle SEC,,43.61163268061219,-116.20541385427646,zoneforstop_VRT_4214
01010118,,Main & 3rd SWC,,43.61267605368601,-116.19788719504994,zoneforstop_VRT_3029
01030907,,Adams & 46th SWC,,43.639543866221636,-116.25440190907636,zoneforstop_VRT_3953
01010376,,Catalpa & Collister NEC,,43.65562000009,-116.24826170504122,zoneforstop_VRT_2772
01010967,,Hill & Smith SWM,,43.644924149386036,-116.21690095361981,zoneforstop_VRT_4090
01010486,,9th & Thatcher NWC,,43.62402869022035,-116.19881530823265,zoneforstop_VRT_1536
01030894,,Adams & 42nd NWM,,43.6351966729312,-116.24791031212435,zoneforstop_VRT_3092
01010163,,Broadway & Park NWC,,43.606419724129886,-116.19351429327807,zoneforstop_VRT_2841
01010696,,Latah & Alpine SWC,,43.603947690638584,-116.22866428817046,zoneforstop_VRT_2955
01010186,,Elder @ Wells Fargo NM,,43.57358084638801,-116.22072487629657,zoneforstop_VRT_2981
01010792,,Fairview & Liberty SWC,,43.619034885535,-116.26146888644408,zoneforstop_VRT_3153
14050015,,7th Street South & 13th Avenue South SWC,,43.57370825239658,-116.56510628461369,zoneforstop_VRT_3730
01010695,,Latah & Alpine SEC,,43.60423426314923,-116.22841571123747,zoneforstop_VRT_1217
14050084,,Caldwell & Park Centre NEC,,43.59794931804824,-116.59187408283147,zoneforstop_VRT_3230
01010405,,Overland & Curtis NEC,,43.58996000009,-116.25346384942532,zoneforstop_VRT_2881
01011051,,Vista & Canal SEC,,43.577448775097686,-116.21351309985141,zoneforstop_VRT_4232
01010878,,Overland & Cloverdale NEC,,43.590390000090004,-116.33401729166508,zoneforstop_VRT_3251
01010738,,Targee & Hilton NEC,,43.582648460334596,-116.24604904087208,zoneforstop_VRT_1239
01010842,,Emerald & Curtis SEC,,43.611532128950905,-116.25318674679608,zoneforstop_VRT_3019
01010711,,13th & Grand NEC,,43.61583551594747,-116.21295558884995,zoneforstop_VRT_2996
01010324,,McMillan & Shamrock SEC,,43.648399999910005,-116.32391609251471,zoneforstop_VRT_3168
01010964,,River & 15th NWC,,43.61713076338597,-116.21607176847102,zoneforstop_VRT_4015
01030904,,Adams & 43rd SWM,,43.636146933655716,-116.24962204238652,zoneforstop_VRT_4270
01010684,,Roosevelt & Kootenai NEC,,43.593758725654624,-116.23344385005879,zoneforstop_VRT_2986
01010111,,Idaho & 5th NEC,,43.61460679544129,-116.19901922172437,zoneforstop_VRT_746
01010945,,River & Ash SWM,,43.613025943292,-116.21344063830603,zoneforstop_VRT_4217
01010721,,Orchard & Emerald SEC,,43.61149920219499,-116.24332569622491,zoneforstop_VRT_1264
01010802,,Fairview & Raymond NEC,,43.619247480703166,-116.26339319876585,zoneforstop_VRT_1593
14010064,,Logan & Fairview SEC,,43.65512003569298,-116.69419649257188,zoneforstop_VRT_349
01010438,,Apple & Lexington NWM,,43.58168805259448,-116.17344829973226,zoneforstop_VRT_2861
01010574,,State & Collister NEC,,43.648612314717916,-116.24739183824182,zoneforstop_VRT_2913
01010657,,Broadway & Chamberlain NWC,,43.587848907753674,-116.19377737762167,zoneforstop_VRT_2845
01010024,,Tobi & Gary SEC,,43.675276815496424,-116.27906556419056,zoneforstop_VRT_4248
14050904,,Midland & Marketplace SWC,,43.61394096995656,-116.59331430882213,zoneforstop_VRT_4276
01010744,,Emerald & Benjamin SWC,,43.611199999910006,-116.28832854330545,zoneforstop_VRT_2749
14050056,,Caldwell & Homedale NEC,,43.61869606933686,-116.62231038994332,zoneforstop_VRT_3236
01010518,,Old Penitentiary @ Botanical Gardens NEM,,43.60240638202137,-116.16370206852304,zoneforstop_VRT_3039
01011011,,Ellens Ferry & Waterwheel NWM,,43.6598761840994,-116.25792430306919,zoneforstop_VRT_3947
01010583,,State & Pierce Park SWC,,43.6616322096307,-116.26865264797922,zoneforstop_VRT_1367
01050906,,Franklin & Umbria Hills NWC,,43.60489000009,-116.43990541238652,zoneforstop_VRT_4025
01010668,,Vista & Rose Hill SEC,,43.60012786206811,-116.21348846217747,zoneforstop_VRT_2940
01010840,,Orchard & Irving NWC,,43.615472175836366,-116.24355812376498,zoneforstop_VRT_3053
14050010,,12th Avenue South & 7th Street South SEC,,43.574025902570334,-116.5656816945034,zoneforstop_VRT_3778
01010306,,Five Mile & Charitan NWC,,43.624734664825645,-116.31436106012434,zoneforstop_VRT_1310
01010644,,Federal Way & Protest SEC,,43.59347781505624,-116.20582447772078,zoneforstop_VRT_2868
01010409,,Vista & Canal NWC,,43.57725650403706,-116.21378308547739,zoneforstop_VRT_386
1011037,,Americana & Latah SEC,,43.61177777780212,-116.22766371748091,zoneforstop_VRT_4220
01010764,,Milwaukee & Bayhill SEM,,43.63680370042368,-116.28409564389075,zoneforstop_VRT_3141
01010157,,University & Joyce SEC,,43.602699234371755,-116.20421238093687,zoneforstop_VRT_2906
01050905,,Overland & Locust Grove SWC,,43.59010684513327,-116.37578785659024,zoneforstop_VRT_4194
01011029,,State & Mercer NEM,,43.64131443638498,-116.23702008985441,zoneforstop_VRT_4252
01010365,,Castle & Castle Hill SEM,,43.66646999991001,-116.26000978052616,zoneforstop_VRT_2780
01010266,,Emerald & Armstrong NEC,,43.610041642966785,-116.30941370673578,zoneforstop_VRT_3082
01011032,,Warm Springs & Ave C SEC,,43.610548247486776,-116.19076198163626,zoneforstop_VRT_4188
01030897,,Adams & Reed NWC,,43.64284057199797,-116.25868761350387,zoneforstop_VRT_3094
01010838,,Orchard & Kendall NWC,,43.617288092491385,-116.24355281723284,zoneforstop_VRT_3052
01010933,,Fairview & Westgate NEC,,43.61953000009,-116.28018535673567,zoneforstop_VRT_3126
01011054,,Saxton & Gary NWC,,43.67172000009,-116.27964658661892,zoneforstop_VRT_4247
01010795,,Fairview & Laurel SEM,,43.61888999991,-116.24726392328682,zoneforstop_VRT_3155
01010547,,Phillippi & Grover NWC,,43.59978093101413,-116.24864427956278,zoneforstop_VRT_1249
01010619,,Idaho & 11th NWC,,43.61843432483415,-116.20653989176664,zoneforstop_VRT_3046
stop_VRT_3331,,Towne Square Mall P&R SWM,,43.61079618874784,-116.27652430232212,zoneforstop_VRT_3331
01010720,,Orchard & Emerald NWC,,43.61196840311943,-116.24357018947173,zoneforstop_VRT_3054
01010275,,Maple Grove & Ustick NWC,,43.63438608293137,-116.29428798006377,zoneforstop_VRT_2743
01010411,,Vista & Cherry SWC,,43.58059020177458,-116.21377423994245,zoneforstop_VRT_2979
14050021,,Idaho Center & Birch NEC,,43.61259637339793,-116.5129831813596,zoneforstop_VRT_3728
01010404,,Overland & Curtis SEC,,43.58977999991001,-116.25286372271052,zoneforstop_VRT_4226
01010796,,Fairview & Orchard SWC,,43.61879999991,-116.24379448592617,zoneforstop_VRT_3156
01010675,,Owyhee & Cherry NWC,,43.58081483617729,-116.22374424040595,zoneforstop_VRT_2969
01010722,,Orchard & Morris Hill NWC,,43.608074495766886,-116.24358429669746,zoneforstop_VRT_1230
01010093,,State & Whitewater Park SEC,,43.634359688204846,-116.22712555695004,zoneforstop_VRT_2965
14010093,,10th @ Jefferson Middle School NEM,,43.6402955692884,-116.69292563666359,zoneforstop_VRT_3320
01050901,,Franklin & Umbria Hills SWM,,43.60470999991001,-116.43985577863363,zoneforstop_VRT_4044
01010399,,Overland & Overland Park NEC,,43.59020703094713,-116.2680702620594,zoneforstop_VRT_2885
01010932,,Fairview & Owens SWC,,43.61933324762062,-116.27843086624942,zoneforstop_VRT_2486
01030893,,Adams & 40th NWC,,43.632225404671985,-116.24372654088008,zoneforstop_VRT_3091
01030348,,Glenwood & Strawberry Glenn SWM,,43.6657358867667,-116.2794344160299,zoneforstop_VRT_2734
01010709,,13th @ Post Office NWM,,43.61450323841506,-116.21687568528567,zoneforstop_VRT_2998
01010077,,Parkcenter & Wise SWC,,43.57584912431302,-116.13812465581465,zoneforstop_VRT_3176
01010124,,9th & Myrtle NWC,,43.613398906155815,-116.20750801449542,zoneforstop_VRT_2922
01010873,,Orchard & Overland NWC,,43.589951884695246,-116.24372254860613,zoneforstop_VRT_3059
01010540,,Curtis & Edson SEC,,43.594644210126035,-116.25352795101078,zoneforstop_VRT_3063
01010435,,Parkcenter & Pennslyvania SWC,,43.585694037344474,-116.17359168050817,zoneforstop_VRT_2860
01010699,,Latah & Meadow SEC,,43.61007203312992,-116.22836605780722,zoneforstop_VRT_2991
01010207,,Bergeson & Gekeler SEM,,43.567789999910005,-116.17709402362178,zoneforstop_VRT_195
14050918,,Midland & Marketplace NEC,,43.61464006366066,-116.59306960937076,zoneforstop_VRT_4275
01010730,,Orchard & Cassia NWM,,43.597555446885565,-116.24370052842116,zoneforstop_VRT_3057
01010145,,University & Brady NWC,,43.60467547779095,-116.20808494140815,zoneforstop_VRT_3187
01010326,,McMillan & Tattenham SWC,,43.64836074522689,-116.33142726369844,zoneforstop_VRT_1357
01010637,,Beacon & Manitou NEC,,43.59851000009,-116.19839658380778,zoneforstop_VRT_212
01010654,,Broadway & Beacon NEC,,43.59879971934459,-116.19341084137847,zoneforstop_VRT_3310
14050002,,Midland & Marketplace SEM,,43.613385615568795,-116.59308945829247,zoneforstop_VRT_4277
01030341,,Glenwood @ Hawks Stadium NEM,,43.65607211133228,-116.2796103761922,zoneforstop_VRT_2723
01010656,,Broadway & Boise NWC,,43.590781027895545,-116.19378426097708,zoneforstop_VRT_2844
14010044,,Cleveland & 34th NEC,,43.64599517536317,-116.66264383271626,zoneforstop_VRT_3240
01010953,,Maple Grove & Shoup NWC,,43.5994620370649,-116.29423574802237,zoneforstop_VRT_4022
01030920,,Adams & 38th SWC,,43.62949336156738,-116.24023863707255,zoneforstop_VRT_4271
14050182,,16th Avenue North & 7th Street North SWC,,43.5821020319636,-116.54746878453196,zoneforstop_VRT_3285
01010246,,Overland & Clear Creek NEC,,43.59035000009,-116.31675593554979,zoneforstop_VRT_3250
14050016,,12th & Southdale NEC,,43.54511289336756,-116.57258583319937,zoneforstop_VRT_3774
01010890,,Five Mile & McMillian NWM,,43.64916885278304,-116.31430129820174,zoneforstop_VRT_3120
01010652,,Broadway & Highlands SEC,,43.594345842812835,-116.19333985736836,zoneforstop_VRT_2874
01010158,,Lincoln & University NWC,,43.601054982487874,-116.20244428219452,zoneforstop_VRT_44
01010436,,Parkcenter & Pennsylvania NEC,,43.58630639480529,-116.17317574826029,zoneforstop_VRT_204
01010277,,Maple Grove & Cornwall SEC,,43.63688439405972,-116.29413390372892,zoneforstop_VRT_2718
01010484,,9th & Sherman NWC,,43.6284505850214,-116.19883226502044,zoneforstop_VRT_1534
01010283,,Goddard & Fircrest NWC,,43.64511650855231,-116.28968808618204,zoneforstop_VRT_2739
14050380,,12th & Valley NWC,,43.54960979930767,-116.57287524600258,zoneforstop_VRT_3215
01010433,,Parkcenter & River Run NWC,,43.5894491823253,-116.1746290793722,zoneforstop_VRT_57
01010973,,Pierce Park & Lucky NEC,,43.663305831860576,-116.26835558900638,zoneforstop_VRT_4094
01010410,,Vista & Cherry SEC,,43.58041846236925,-116.213525760412,zoneforstop_VRT_2935
01010457,,Bergeson & Mount Vernon SWC,,43.56774262453222,-116.17290712890691,zoneforstop_VRT_196
01010257,,Maple Grove & Northview NWC,,43.62672705769509,-116.29436433526081,zoneforstop_VRT_1520
01010517,,Old Penitentiary & Klotz SEM,,43.6015310710505,-116.1663604162662,zoneforstop_VRT_3038
01010747,,Westpark & Benjamin NEC,,43.60714000009,-116.28800466656821,zoneforstop_VRT_3076
01010693,,Latah & Rose Hill NEC,,43.60098802335031,-116.22843304863108,zoneforstop_VRT_4238
01010917,,Victory & Victory View SWC,,43.575579186803,-116.29052648541438,zoneforstop_VRT_1670
14010010,,10th & Chicago SEC,,43.66710367591862,-116.68201943163072,zoneforstop_VRT_3265
01010558,,36th & Magnolia SEC,,43.650808185352695,-116.23323936041741,zoneforstop_VRT_2769
01010632,,13th & Main SEC,,43.618453388920315,-116.20933696775668,zoneforstop_VRT_1208
01010710,,13th & Grand SWC,,43.61548577744853,-116.213394101626,zoneforstop_VRT_3026
01010729,,Orchard & Ponder NEM,,43.600656638241695,-116.24338897282657,zoneforstop_VRT_1260
01010586,,State & Marketplace SEC,,43.65198720786943,-116.2525929838228,zoneforstop_VRT_2948
01010658,,Broadway & Dundee NWC,,43.58579085321962,-116.1937942506756,zoneforstop_VRT_313
01010496,,Broadway & Main SWM,,43.6097027098111,-116.19356069815771,zoneforstop_VRT_306
01010915,,Victory & Victory View NEC,,43.57575935919395,-116.29021966392175,zoneforstop_VRT_1673
01010977,,Barrister & Allumbaugh NWC,,43.60664000009,-116.26653763762909,zoneforstop_VRT_3993
01010330,,Cloverdale & Hickory NWC,,43.651967973649235,-116.33452438750442,zoneforstop_VRT_3166
14050092,,3rd Street South & 4th Avenue South SWC,,43.58313848469827,-116.57052606337648,zoneforstop_VRT_3206
01010529,,Overland & Columbus NEC,,43.58995662478435,-116.2084410785075,zoneforstop_VRT_1712
01011021,,Allumbaugh & Douglas NEC,,43.6055507746995,-116.26613570851738,zoneforstop_VRT_4225
01010269,,Emerald & Maple Grove  NWC,,43.61104000009,-116.29465185105806,zoneforstop_VRT_3079
01010995,,Bown & Riverwalk NWC,,43.574728554016254,-116.15452722106824,zoneforstop_VRT_3987
01010526,,Overland & Shoshone SWC,,43.589749999910005,-116.21879763901205,zoneforstop_VRT_2899
01030340,,Glenwood & Lorimer SWM,,43.65094286920269,-116.27987438538132,zoneforstop_VRT_2737
14050091,,Caldwell & Yale SWC,,43.58536963041594,-116.57380769465269,zoneforstop_VRT_3205
14050894,,Franklin & Orah NEC,,43.61778392633094,-116.5530581985506,zoneforstop_VRT_4031
01010534,,Roosevelt & Overland NWC,,43.58991358703022,-116.23373979327565,zoneforstop_VRT_2962
01010143,,University @ BSU Admin NWM,,43.60323269264278,-116.20512597440282,zoneforstop_VRT_2816
01010531,,Overland & Annett NWC,,43.58993000009,-116.203989163041,zoneforstop_VRT_2873
01010992,,Linden & Broadway SEC,,43.57887999991001,-116.19300314175257,zoneforstop_VRT_3999
01010274,,Maple Grove & Ustick SEC,,43.633604414221,-116.29404637126646,zoneforstop_VRT_2717
01010407,,Overland & Randolph NEC,,43.589918770695476,-116.2495113182035,zoneforstop_VRT_2879
01030896,,Adams & 46th NWC,,43.639676188188844,-116.254218824818,zoneforstop_VRT_3093
01010556,,36th & Shasta SEC,,43.65359490253589,-116.23319771621155,zoneforstop_VRT_1486
14050100,,Northside & 6th Street North SEC,,43.59788675635459,-116.57284178453051,zoneforstop_VRT_3170
14010039,,Cleveland & 22nd SWM,,43.65461461469324,-116.6757551989725,zoneforstop_VRT_3275
01010743,,Emerald & Benjamin NWC,,43.61138000009,-116.28882274031633,zoneforstop_VRT_2710
01010338,,Discovery & Chinden SEC,,43.662355260536145,-116.34267559097626,zoneforstop_VRT_3113
01010276,,Maple Grove & Ruth NWC,,43.63769315798113,-116.29437435795006,zoneforstop_VRT_2742
01010789,,Fairview & Eldorado SWC,,43.61917999991,-116.27062462270442,zoneforstop_VRT_3151
01030825,,Chinden & Murray SWC,,43.63993115581971,-116.26382118863866,zoneforstop_VRT_1411
01010509,,Warm Springs & Homestead SEM,,43.60280797567984,-116.17288305112498,zoneforstop_VRT_3037
14010027,,Franklin & Aviation NWC,,43.6628251512769,-116.65355236172454,zoneforstop_VRT_3786
01010997,,Hill & Harrison SEC,,43.639918990903574,-116.20786905480472,zoneforstop_VRT_3928
01010904,,Protest & Boise SEC,,43.597855531395595,-116.2048772273564,zoneforstop_VRT_2905
01010126,,9th & River SWC,,43.61088085380441,-116.20932586741507,zoneforstop_VRT_2923
14050914,,Cherry & Midsummer NEC,,43.61970803431991,-116.55906605177215,zoneforstop_VRT_4032
14010058,,Blaine & 24th NEC,,43.65342533182115,-116.67178884059797,zoneforstop_VRT_3259
14050112,,16th Avenue South & 8th Street South SEC,,43.57049402080822,-116.5624676120899,zoneforstop_VRT_3307
01010707,,13th @ Post Office SWC,,43.614368257525406,-116.21668873418602,zoneforstop_VRT_3025
01010691,,Rose Hill & Cleveland SWC,,43.600588192283524,-116.2311579432348,zoneforstop_VRT_1216
01010447,,Boise & Holden NEC,,43.57625239506103,-116.1683154817581,zoneforstop_VRT_2806
01011048,,Millspur Loop,,43.569892680897055,-116.11819260987046,zoneforstop_VRT_4282
01010883,,Benjamin @ DMV NEM,,43.60932698018912,-116.28803570071427,zoneforstop_VRT_3077
01010698,,Latah & Kipling SWM,,43.605418562805724,-116.22865429120941,zoneforstop_VRT_2954
14010090,,Happy Day Transit Center,,43.62781414487912,-116.63491488427645,zoneforstop_VRT_3324
01010113,,Idaho & 1st NEC,,43.6122446593319,-116.19436003790146,zoneforstop_VRT_744
01010273,,Maple Grove & Lancelot NWM,,43.63109603447244,-116.29437434429883,zoneforstop_VRT_2744
01030818,,Chinden & 33rd NEC,,43.62190513922618,-116.2380846638827,zoneforstop_VRT_3086
01050908,,Franklin & Black Cat NWC,,43.60490485376329,-116.45604020185084,zoneforstop_VRT_4026
01030820,,Chinden & 39th NEC,,43.627497244566676,-116.24592112360327,zoneforstop_VRT_1348
01010543,,Curtis & Cassia SEC,,43.597916352629255,-116.25354572428849,zoneforstop_VRT_1246
01010546,,Phillippi & Franklin SWC,,43.602882958928404,-116.24860706712364,zoneforstop_VRT_1248
01010267,,Emerald & Mitchell SWC,,43.60952087445322,-116.3043126121037,zoneforstop_VRT_1317
14050071,,Caldwell & Middleton SEM,,43.61171210205518,-116.61241833167574,zoneforstop_VRT_3194
01010614,,Collins @ V.A. Medical Center NWM,,43.61945214166898,-116.19040640582465,zoneforstop_VRT_1624
01010367,,Castle & Holly Hill SWC,,43.66643332117409,-116.25505004607334,zoneforstop_VRT_1458
01010909,,Overland & Entertainment NWC,,43.590409737324926,-116.28157531312365,zoneforstop_VRT_2820
14050898,,Cherry & Midland SEC,,43.619389999910005,-116.59258938130915,zoneforstop_VRT_4193
01010552,,Catalpa & Tamarack NEC,,43.65554857784353,-116.23925950795095,zoneforstop_VRT_2770
01010877,,Cole & Colonial NEC,,43.60235592197735,-116.27406571511804,zoneforstop_VRT_2835
14050077,,Caldwell & Karcher NEM,,43.60781054160584,-116.60624230618045,zoneforstop_VRT_3231
01010453,,Bergeson & Law NWC,,43.56788000009,-116.16379781777272,zoneforstop_VRT_4061
14010006,,Thomas Jefferson & Smeed NEC,,43.65987416622633,-116.64267936971115,zoneforstop_VRT_3785
14050897,,Franklin & Star NEC,,43.60502000009,-116.49187954330188,zoneforstop_VRT_4027
01011053,,Vista & Overland SEC,,43.58944652428928,-116.2135426914079,zoneforstop_VRT_4231
14010042,,Cleveland & Linden NWM,,43.64863141370479,-116.66651423737383,zoneforstop_VRT_3241
01010542,,Curtis & Cassia SWC,,43.597857936791094,-116.25379427559088,zoneforstop_VRT_1251
14050105,,Idaho Center & East Gate NWM,,43.60282345649446,-116.51344663023549,zoneforstop_VRT_3179
01010258,,Maple Grove & Northview SEC,,43.626447688621546,-116.29411566531708,zoneforstop_VRT_2715
14050017,,Greenhurst & 12th NEC,,43.54717000009,-116.57209,zoneforstop_VRT_3724
01010902,,Chrisway & Boise NWC,,43.601232327681714,-116.20928037315348,zoneforstop_VRT_2862
01010488,,Fort & 9th NEC,,43.62230048619891,-116.19852327267488,zoneforstop_VRT_2878
01010958,,Hill & Harrison NWC,,43.64057670350832,-116.20876990881011,zoneforstop_VRT_4260
14050900,,Midland & Cherry SWC,,43.619219192646625,-116.59337431973417,zoneforstop_VRT_4195
01030823,,Chinden & 45th NEC,,43.635014563144786,-116.25651659008902,zoneforstop_VRT_1349
01010916,,Maple Grove & Ottawa SEC,,43.5846156331152,-116.29401575175011,zoneforstop_VRT_2828
01010746,,Emerald & Maple Grove NEC,,43.61103692150054,-116.29383742236192,zoneforstop_VRT_2711
01010152,,Capitol & Ann Morrison NWC,,43.605954201098484,-116.2113602421541,zoneforstop_VRT_2924
01010870,,Idaho & 9th NWC,,43.61715849578644,-116.20408441376202,zoneforstop_VRT_3316
01010620,,Idaho & 13th NWC,,43.619594843009565,-116.20885824526906,zoneforstop_VRT_3047
14050007,,Idaho Center & Hunt NEM,,43.60889710137469,-116.51300698474563,zoneforstop_VRT_3727
01010735,,Orchard & Clark SEC,,43.5914019283735,-116.24346573774102,zoneforstop_VRT_3066
14050097,,2nd Street South & 10th Avenue South NEM,,43.5792873259523,-116.56242995927416,zoneforstop_VRT_3225
01010791,,Fairview & Raymond SWC,,43.61907362661497,-116.26392097364796,zoneforstop_VRT_3152
01010784,,Cole & Weseley NWC,,43.62361761538481,-116.27432764396423,zoneforstop_VRT_1279
01010607,,State & 9th NWC,,43.619474704631244,-116.20190628840436,zoneforstop_VRT_2755
01010588,,State & Willow SEC,,43.64477301011221,-116.24249311926972,zoneforstop_VRT_2958
01010846,,Rifleman & Emerald SEC,,43.61189829622359,-116.28049737767918,zoneforstop_VRT_3145
01010204,,Federal Way @ Fred Meyer SWC,,43.56994889145111,-116.18579694957022,zoneforstop_VRT_194
01010921,,Maple Grove & Cannal Island NWC,,43.58838418692263,-116.29424699060873,zoneforstop_VRT_2824
01010849,,Emerald & Rifleman SWC,,43.612382976301966,-116.27956703933471,zoneforstop_VRT_2751
14010905,,Cleveland Blvd @ Walmart Entrance NEC,,43.632527796168105,-116.64289235172517,zoneforstop_VRT_3238
01010206,,Bergeson & Gekeler NEC,,43.56796203486124,-116.1773348191566,zoneforstop_VRT_4212
01030347,,Glenwood & State SEM,,43.66651747682098,-116.27912527347695,zoneforstop_VRT_1444
14050911,,Holly & Roosevelt SWC,,43.56855482344114,-116.5644716665931,zoneforstop_VRT_4288
01030342,,Glenwood & Marigold NWC,,43.6594013373032,-116.27986895481027,zoneforstop_VRT_2735
01010985,,John's Landing & Ellen's Ferry SWC,,43.66230870383715,-116.25436953633908,zoneforstop_VRT_4182
01010268,,Emerald & Mitchell NEC,,43.60970000009,-116.30385853350009,zoneforstop_VRT_3081
1010718,,Emerald & Stanley SWC,,43.61151999991001,-116.24257555934469,zoneforstop_VRT_4091
01010851,,Cole & Franklin SWM,,43.60392571655206,-116.27433428812508,zoneforstop_VRT_2815
01011006,,9th & Thatcher SEC,,43.62386387177703,-116.19859672308013,zoneforstop_VRT_4263
01010950,,8th & Fort SEM,,43.621261226919955,-116.19792237382269,zoneforstop_VRT_4255
01010943,,Fort & 13th SEC,,43.6244015475102,-116.20308339686646,zoneforstop_VRT_4256
01010538,,Curtis & Robertson NEM,,43.591261918984536,-116.25351531026713,zoneforstop_VRT_3062
14050019,,Fern & Bird SWC,,43.56106862968485,-116.56164266235888,zoneforstop_VRT_3733
01019999,,Main Street Station,,43.615164572185215,-116.20352992427982,zoneforstop_VRT_3308
14010087,,Logan & Fairview NWC,,43.655292206217304,-116.69452875544873,zoneforstop_VRT_3789
01010740,,Targee & Curtis NEC,,43.58263000009,-116.25352870818193,zoneforstop_VRT_1241
01010247,,Maple Grove & Overland NEM,,43.59108027510492,-116.29395793841682,zoneforstop_VRT_2830
01010528,,Overland & Columbus SEC,,43.58977669557444,-116.20844816248135,zoneforstop_VRT_1733
01010363,,Castle & Eugene SWC,,43.66645962360712,-116.26352034053741,zoneforstop_VRT_1456
01011033,,Warm Springs & Bruce SWC,,43.609324069680376,-116.18814251319128,zoneforstop_VRT_4189
01010448,,Boise & Law SWC,,43.57404192259633,-116.16361235570255,zoneforstop_VRT_86
01010800,,Fairview & Hartman NEC,,43.61916585484546,-116.25840367149335,zoneforstop_VRT_1591
01010490,,Fort & 13th NEC,,43.624721679198565,-116.20331901620098,zoneforstop_VRT_1544
01010539,,Curtis & Robertson SWC,,43.591181455364726,-116.25376203898992,zoneforstop_VRT_1254
01010856,,Cole & Brentwood SEC,,43.594752420902665,-116.27403132950418,zoneforstop_VRT_1681
01010807,,Barrister & Allumbaugh SWC,,43.606445223301684,-116.2665307467442,zoneforstop_VRT_3014
01010312,,Five Mile & Country Squire SEC,,43.636458590033456,-116.31421716675752,zoneforstop_VRT_3100
01010686,,Roosevelt & Cassia SEC,,43.596415901332456,-116.23343731535464,zoneforstop_VRT_2987
01030832,,Chinden & 45th SWC,,43.635123213721045,-116.25702603610615,zoneforstop_VRT_3102
01030924,,36th & Clay SWC,,43.624942403042226,-116.23969180124118,zoneforstop_VRT_4063
01010252,,Maple Grove & Fairview NEC,,43.6202777104508,-116.29401567807716,zoneforstop_VRT_2713
01010499,,Warm Springs & Avenue C NEC,,43.61076472100416,-116.19074804074897,zoneforstop_VRT_3044
01010737,,Orchard & Targee NWC,,43.58270750966505,-116.24371424431183,zoneforstop_VRT_4227
01010254,,Maple Grove & Halstead NWC,,43.621793766166356,-116.29429652328639,zoneforstop_VRT_1522
 01010603,,State & 11th NEC,,43.62044639628175,-116.20382551629065,zoneforstop_VRT_2756
01010307,,Five Mile & Cory SEC,,43.627315721477,-116.31412184416648,zoneforstop_VRT_3097
01010504,,Warm Springs & Pierce SEM,,43.605950192302025,-116.18032345208474,zoneforstop_VRT_3036
01030338,,Chinden & Garrett NEC,,43.65604282774697,-116.29866182367883,zoneforstop_VRT_3161
01010741,,Curtis & Elkhorn SEC,,43.58570873112738,-116.2535040821619,zoneforstop_VRT_3061
01010680,,Nez Perce & Latah NEC,,43.587354315354965,-116.2283194996053,zoneforstop_VRT_2984
01010406,,Overland & Phillippi SWC,,43.58972291265773,-116.24876879204328,zoneforstop_VRT_1256
01010535,,Overland & Country Club Plaza NWM,,43.58985735177633,-116.23807164594616,zoneforstop_VRT_1718
01010309,,Five Mile & Excalibur SWC,,43.63088714639184,-116.31441868183046,zoneforstop_VRT_3128
01010751,,Milwaukee & Fairview NEC,,43.62020858358978,-116.28408026148637,zoneforstop_VRT_3133
14050023,,Holly & Florida NWC,,43.55731023789384,-116.56448419193221,zoneforstop_VRT_3734
01010731,,Orchard & Cassia SEC,,43.59697051487721,-116.24347572624197,zoneforstop_VRT_3068
01030581,,Plantation Shopping Center SEM,,43.66661242635735,-116.27658217928865,zoneforstop_VRT_2709
01030343,,Glenwood & Marigold SEC,,43.65916516876506,-116.27962559758639,zoneforstop_VRT_2724
01010497,,Beacon & Denver NEC,,43.59848195656059,-116.19498892793358,zoneforstop_VRT_2813
01010285,,Goddard & Milwaukee NWC,,43.644937040576714,-116.28442491265243,zoneforstop_VRT_4245
01010580,,Saxton & State NWC,,43.67044828593952,-116.28167317017203,zoneforstop_VRT_3803
01010993,,15th & Lemp SEC,,43.63277870365732,-116.20567645819814,zoneforstop_VRT_4257
01010161,,Broadway & University NWC,,43.60112811344147,-116.19365687498413,zoneforstop_VRT_3211
01010430,,Parkcenter & Mallard SEC,,43.596423225237615,-116.17763455414214,zoneforstop_VRT_2811
01030919,,Adams & Creation SWC,,43.6431299980215,-116.25943734223716,zoneforstop_VRT_4269
01010369,,Hill & Collister SWC,,43.666015186685044,-116.248706497132,zoneforstop_VRT_2782
01011052,,Chinden @ Hewlett Packard,,43.6600866510317,-116.32375948991475,zoneforstop_VRT_4201
01030900,,Alworth & 50th NEC,,43.6455697925605,-116.26331957601072,zoneforstop_VRT_1618
01010742,,Curtis & Overland SEC,,43.589754038159874,-116.25352506584552,zoneforstop_VRT_1243
01030833,,Chinden & 43rd SWC,,43.63250404110933,-116.25333268380491,zoneforstop_VRT_1413
01010850,,Cole & Franklin SEC,,43.604383553731765,-116.27408519976063,zoneforstop_VRT_1684
01010259,,Emerald & Kimball NEC,,43.610527237884234,-116.298390137342,zoneforstop_VRT_4249
01030892,,Adams @ ACHD NEC,,43.629442826332756,-116.23980999899013,zoneforstop_VRT_3089
14050072,,Caldwell & Middleton SEC,,43.61236438652185,-116.61301178317756,zoneforstop_VRT_3234
01010976,,9th & Sherman SEC,,43.6282731484995,-116.19858677047183,zoneforstop_VRT_4265
01010264,,Emerald & Five Mile NEC,,43.6100540192321,-116.31399139524369,zoneforstop_VRT_3083
01010553,,Catalpa & Woody NWM,,43.655510000090004,-116.23520538210914,zoneforstop_VRT_3566
01011030,,State & 18th SEC,,43.62450469987934,-116.2122581649683,zoneforstop_VRT_4057
01010713,,Americana & Latah NEC,,43.61168364948203,-116.22841720716653,zoneforstop_VRT_1177
01010450,,Law & Wright SWC,,43.57155982255557,-116.16353687080148,zoneforstop_VRT_87
01010502,,Warm Springs & Walnut NEC,,43.60705160281864,-116.18240838216197,zoneforstop_VRT_1635
01010554,,Catalpa & Woody SEC,,43.65532999991001,-116.2350122630591,zoneforstop_VRT_3565
01010949,,Cole & Emerald SEC,,43.61201997640922,-116.27410569514855,zoneforstop_VRT_4006
01011036,,State & Collister NWC,,43.65025472514725,-116.2495007076084,zoneforstop_VRT_4054
14010084,,Blaine & 10th NWC,,43.663726143128095,-116.68694880580902,zoneforstop_VRT_3792
01010804,,Fairview & Eldorado NEC,,43.61933893702502,-116.27016937296773,zoneforstop_VRT_1595
01010989,,Federal Way & Broadway SWC,,43.575276292257726,-116.19475055180008,zoneforstop_VRT_4001
01010736,,Orchard & Spaulding SWC,,43.585803741302925,-116.24371425070223,zoneforstop_VRT_4228
01010329,,Cloverdale & Hickory NEC,,43.652031098652344,-116.33427561236488,zoneforstop_VRT_3110
01010485,,9th & Pueblo NWC,,43.62579867900093,-116.19883589314014,zoneforstop_VRT_1535
01010023,,Gary & Tobi NWC,,43.67568404282876,-116.27931213715868,zoneforstop_VRT_2733
14050099,,2nd Street South & 3rd Avenue South NEC,,43.58438631513447,-116.56991987765419,zoneforstop_VRT_3226
01011027,,Fairview & Milwaukee SEC,,43.61930999991001,-116.28295406699067,zoneforstop_VRT_2485
01010694,,Latah & Rose Hill NWC,,43.600810889397344,-116.22868428169029,zoneforstop_VRT_2956
010101799,,Fairview & Curtis NEC,,43.61908000009,-116.25308565795507,zoneforstop_VRT_3116
01010679,,Nez Perce & Owyhee NWC,,43.58738620686201,-116.22401589337414,zoneforstop_VRT_2983
01010541,,Curtis & Edson SWM,,43.59442787973483,-116.25377923727505,zoneforstop_VRT_1253
01030835,,Chinden & 39th SWC,,43.62751360507873,-116.24629871861274,zoneforstop_VRT_1365
01010758,,Milwaukee & Marcum NEM,,43.63023498481839,-116.28398565748259,zoneforstop_VRT_1291
14010024,,10th & Belmont NWC,,43.66696720898045,-116.68254013143462,zoneforstop_VRT_3269
14050020,,Garrity & Stamm SEC,,43.59564163441937,-116.51589492722779,zoneforstop_VRT_3804
01030817,,Chinden & 31st NEC,,43.62062403411465,-116.23625592293091,zoneforstop_VRT_1418
01010561,,Taft & 32nd SWC,,43.64797999991001,-116.22844841496425,zoneforstop_VRT_1469
01010596,,State & 23rd SEC,,43.62801314523994,-116.21781998749525,zoneforstop_VRT_2791
01010750,,Milwaukee @ Home Depot SWM,,43.615967686075685,-116.28427431301175,zoneforstop_VRT_3144
01010510,,Warm Springs & Hot Springs NEC,,43.602646673522074,-116.1719092439404,zoneforstop_VRT_1650
01010662,,Vista & Elder NWC,,43.573975464044004,-116.21451374520034,zoneforstop_VRT_2980
01011034,,Warm Springs & Walnut SEC,,43.606891266627514,-116.1825406471479,zoneforstop_VRT_3984
01010844,,Emerald & Hartman SEM,,43.61180443304958,-116.25891954734784,zoneforstop_VRT_3018
01011038,,Emerald & Liberty NWC,,43.61203944396052,-116.26178904757833,zoneforstop_VRT_4016
01010323,,McMillan & Shamrock NEC,,43.64858000009,-116.32410375083076,zoneforstop_VRT_1341
14050902,,Franklin & Tiegs NWC,,43.605112676077226,-116.50955912904423,zoneforstop_VRT_4192
01010562,,Taft & 32nd NEC,,43.64816151483767,-116.22819429328203,zoneforstop_VRT_1483
01010794,,Fairview & Curtis SEC,,43.61889948783056,-116.25293177957157,zoneforstop_VRT_3154
01010455,,Bergeson & Minuteman SWC,,43.56772999991001,-116.16726386868847,zoneforstop_VRT_197
14050889,,Tiegs @ Micron Center NWC,,43.603711501221426,-116.509475283438,zoneforstop_VRT_1840
01030912,,Alworth & Kent SEC,,43.648329999910004,-116.27407,zoneforstop_VRT_3950
01011017,,9th & Brumback SEC,,43.63092251922656,-116.19855721413425,zoneforstop_VRT_3979
01010271,,Maple Grove & Cory NWC,,43.62772581364095,-116.29436433732674,zoneforstop_VRT_2745
01010248,,Maple Grove & Overland NWC,,43.590581066763114,-116.29422674783919,zoneforstop_VRT_2823
14010040,,Cleveland & Oak NWC,,43.65109774609301,-116.67055550664003,zoneforstop_VRT_3276
01010704,,Americana & Shoreline SWC,,43.61644154648662,-116.22055459180126,zoneforstop_VRT_762
01010797,,Fairview & Orchard NEC,,43.61910246374914,-116.2431350764021,zoneforstop_VRT_1588
01010756,,Milwaukee & Northview SEC,,43.62635570650315,-116.28408566550735,zoneforstop_VRT_3138
01010930,,Elder @ BSU P&R SWM,,43.57342601052811,-116.21641591954781,zoneforstop_VRT_2971
01010304,,Five Mile & Halstead NWC,,43.6220776960714,-116.31437432564499,zoneforstop_VRT_3130
01010664,,Vista & Kootenai SEC,,43.593395749201335,-116.21353845449457,zoneforstop_VRT_754
01010628,,Fairview & 23rd SWC,,43.620542303429644,-116.2185190445046,zoneforstop_VRT_1267
01011024,,Parkcenter & Harris Ranch NWC,,43.57210420856832,-116.12688541985493,zoneforstop_VRT_3986
01010322,,McMillan & Wisteria SWC,,43.648387855118116,-116.31973987664529,zoneforstop_VRT_1359
01010187,,Airport & Vista NWC,,43.569691479549924,-116.21741458859485,zoneforstop_VRT_2933
01010078,,Parkcenter & Wise NEC,,43.57572658015898,-116.13724179245499,zoneforstop_VRT_3173
14050907,,Franklin & Star SEC,,43.604839999910006,-116.49178337413161,zoneforstop_VRT_4042
01010200,,Federal Way & TK SWC,,43.572892955797926,-116.19123014969578,zoneforstop_VRT_317
01010106,,Capitol & Cesar Chavez SEM,,43.6074231937836,-116.20937200746049,zoneforstop_VRT_217
14050389,,Holly & Florida SEC,,43.55704909288979,-116.56423580860603,zoneforstop_VRT_3220
14050094,,3rd Street South & 10th Avenue South SWC,,43.57871114937533,-116.56405998455983,zoneforstop_VRT_3208
14050095,,2nd Street South & 15th Avenue South NEC,,43.575913160448195,-116.55737586194883,zoneforstop_VRT_1151
01010723,,Orchard & Morris Hill SEC,,43.60785995427699,-116.24333642123526,zoneforstop_VRT_3069
01010188,,Boise Airport,,43.56894373113964,-116.22060839668548,zoneforstop_VRT_828
01010912,,Pro Tech @ Boise School District Offices SWM,,43.57369103250184,-116.28407351808062,zoneforstop_VRT_2826
14050227,,12th Avenue South & 4th Street South SEC,,43.57607997512864,-116.56313761905771,zoneforstop_VRT_3224
01010168,,Front & 9th NEC,,43.61469405604986,-116.20585935859226,zoneforstop_VRT_389
14050177,,Garrity & Venice SWC,,43.58662521879664,-116.53939493271092,zoneforstop_VRT_1764
01010544,,Curtis & Anna SEC,,43.60098023293917,-116.25353748912129,zoneforstop_VRT_1247
14010045,,Cleveland & 38th SEM,,43.64205557428002,-116.65726898165121,zoneforstop_VRT_3279
01010948,,13th & Ridenbaugh SEC,,43.63185752921623,-116.20321979006077,zoneforstop_VRT_3972
01010772,,Cole & Court NWC,,43.63727176537836,-116.27436435707794,zoneforstop_VRT_3148
01010337,,Bridger & Meeker NWM,,43.65893000009,-116.33828247857662,zoneforstop_VRT_1961
01010422,,Overland & Vista SWC,,43.589769999910004,-116.21395893394936,zoneforstop_VRT_2900
14050915,,Cherry & Brandts Creek SWC,,43.61952468929723,-116.55843143548464,zoneforstop_VRT_4036
14010029,,Chicago & 12th SWC,,43.66592972366432,-116.67996899770878,zoneforstop_VRT_3266
01010165,,Broadway & Front NEC,,43.60826183981212,-116.19318419517833,zoneforstop_VRT_743
01010716,,Emerald & Garden NWC,,43.61167000009,-116.23882636427567,zoneforstop_VRT_4221
14050108,,12th & Iowa SWC,,43.55398378097388,-116.57297704998574,zoneforstop_VRT_3306
01010701,,Americana & Albertson Park NWC,,43.61412201008271,-116.22406891116516,zoneforstop_VRT_3000
01010911,,Maple Grove & Ottawa SWC,,43.58420211144735,-116.29427424739642,zoneforstop_VRT_2825
01010260,,Emerald & Kimball SWC,,43.61009407549736,-116.29854246196696,zoneforstop_VRT_3139
01010120,,Main & 8th SWC,,43.61578772826712,-116.20403540616257,zoneforstop_VRT_787
01010325,,McMillian & Lena NEC,,43.648561021042745,-116.32917544800401,zoneforstop_VRT_3108
01010332,,Cloverdale & DeMeyer NWC,,43.65585689887887,-116.33455439555973,zoneforstop_VRT_3165
01010245,,Overland & Clear Creek SWC,,43.590179999910006,-116.3171799512466,zoneforstop_VRT_1698
01010398,,Overland & Overland Park SWC,,43.59000691847376,-116.26705866412462,zoneforstop_VRT_1726
14050074,,Caldwell & Sundance SWC,,43.610067149182335,-116.61001100252008,zoneforstop_VRT_3195
01010299,,Five Mile & Irving SEC,,43.61533308922786,-116.31419568830016,zoneforstop_VRT_3095
14010012,,10th & Dearborn NEM,,43.661921682333464,-116.68874103111503,zoneforstop_VRT_3185
01010522,,Roosevelt & Overland SEC,,43.589547094876636,-116.23349574157048,zoneforstop_VRT_2985
01010889,,Five Mile & Hickory NWC,,43.65140533482069,-116.31428438633912,zoneforstop_VRT_3118
14050377,,12th & Sheridan SWM,,43.56445829924699,-116.57305420666752,zoneforstop_VRT_3213
14010082,,Chicago & 12th NEC,,43.66586144362187,-116.67950366147431,zoneforstop_VRT_3788
14010015,,10th & Logan SEC,,43.65498692124224,-116.69297560624244,zoneforstop_VRT_3184
14010062,,Kimball & Arlington SWM,,43.65926671453961,-116.69638864129296,zoneforstop_VRT_3303
01010805,,Barrister & Bethel SWC,,43.60658999991001,-116.2705783755684,zoneforstop_VRT_1190
01010978,,Airport & Vista SEC,,43.56929197989848,-116.2151516684413,zoneforstop_VRT_4234
01010970,,River & 15th SEC,,43.61680534134351,-116.21613159778477,zoneforstop_VRT_4010
14050890,,Birch @ CWI Aspen Building NWC,,43.61241000009,-116.51407499049384,zoneforstop_VRT_4272
01010852,,Cole & Colonial SWM,,43.60105491823484,-116.27431163747245,zoneforstop_VRT_2817
14010023,,10th & Larkspur SWC,,43.64069864324403,-116.69318435004143,zoneforstop_VRT_3190
01010980,,15th & Irene NEC,,43.63658926004781,-116.20567564433455,zoneforstop_VRT_4258
01010905,,University @ BSU Transit Center NEC,,43.60177596116242,-116.2022372185187,zoneforstop_VRT_2814
01010320,,McMillian & Five Mile NWM,,43.64855000009,-116.31552748381955,zoneforstop_VRT_3106
01010527,,Overland & Shoshone NEC,,43.58993194416438,-116.21853102717047,zoneforstop_VRT_1714
01010575,,State & Marketplace NWC,,43.652716184064566,-116.25338971010571,zoneforstop_VRT_2914
01010318,,Five Mile & Goldenrod NWC,,43.64489412793799,-116.31433310878653,zoneforstop_VRT_3121
14050174,,Garrity & Venice NWM,,43.586810000090004,-116.5397011488688,zoneforstop_VRT_3297
01010702,,Americana & Ann Morrison NEC,,43.614156059486255,-116.22364910598769,zoneforstop_VRT_4219
01010692,,Rose Hill & Cleveland NEC,,43.60077478312116,-116.23076444811338,zoneforstop_VRT_2957
01050244,,Overland & Silverstone NEC,,43.59044000009,-116.34932465851324,zoneforstop_VRT_3252
01010682,,Nez Perce & Cleveland SWC,,43.58715999991001,-116.2312567995316,zoneforstop_VRT_773
01011005,,River & Ash NWM,,43.613671116293666,-116.2136750148273,zoneforstop_VRT_4218
01010724,,Orchard & Bethel NWC,,43.606301944825994,-116.24359362030025,zoneforstop_VRT_3055
01011018,,9th & Pueblo SEC,,43.62566726446009,-116.19859635996994,zoneforstop_VRT_4264
01010331,,Cloverdale & DeMeyer SEC,,43.65543216208716,-116.33430509156462,zoneforstop_VRT_3111
01010286,,Goddard & Glenwood SWC,,43.643786754762594,-116.27801401939124,zoneforstop_VRT_1442
01010493,,9th & Hayes NWC,,43.62168644170221,-116.19955048578431,zoneforstop_VRT_1538
01010685,,Roosevelt & Kootenai NWC,,43.59352892378662,-116.23369366252383,zoneforstop_VRT_2960
01010585,,State & Plantation River SWC,,43.655712868386296,-116.25865991984249,zoneforstop_VRT_1368
01010501,,Warm Springs & Elm NEC,,43.60815970291055,-116.18496882872311,zoneforstop_VRT_4266
01010946,,15th & Sherman NWC,,43.62848779233907,-116.20595433890294,zoneforstop_VRT_4183
01010302,,Five Mile & Fairview NEC,,43.620490526205046,-116.31416567763712,zoneforstop_VRT_3096
01010572,,State & Willow NEC,,43.64513487627208,-116.24266209739997,zoneforstop_VRT_1400
01010623,,Main & 23rd NEC,,43.62190000009,-116.21809892355894,zoneforstop_VRT_3050
14050085,,Caldwell & Horton SEC,,43.59446591736489,-116.5871199706932,zoneforstop_VRT_3203
14010030,,Blaine & 20th NEC,,43.65636537184498,-116.67612139752742,zoneforstop_VRT_3260
01010763,,Cole & Barrister NWM,,43.607144346240055,-116.27423290850162,zoneforstop_VRT_2803
01010845,,Towne Square Mall P&R SWM,,43.6106601596092,-116.27651240344439,zoneforstop_VRT_786
01050083,,Overland & Black Marlin NWC,,43.59018000009,-116.39923453331079,zoneforstop_VRT_2373
01010688,,Roosevelt & Albion SEC,,43.59866666722773,-116.23341873619424,zoneforstop_VRT_2988
01010965,,Emerald & Camelot NWC,,43.61228000009,-116.26999,zoneforstop_VRT_4224
01010446,,Boise & Holden SEC,,43.57595972839983,-116.16813763310772,zoneforstop_VRT_4209
01010935,,Ustick & Ash Park SWC,,43.633829999910006,-116.28192074596865,zoneforstop_VRT_3313
14010043,,Cleveland & Florida SEC,,43.645586231573056,-116.66240736129922,zoneforstop_VRT_3278
14050009,,CWI Main Campus,,43.61503038126265,-116.50714796041021,zoneforstop_VRT_351
01010027,,Gillis & Gary NEC,,43.67806000009,-116.27881541848126,zoneforstop_VRT_4021
01010678,,Nez Perce & Owyhee SWC,,43.587202246255046,-116.22376510611647,zoneforstop_VRT_2967
01010559,,Taft & 36th NEC,,43.648139819756516,-116.23320903530606,zoneforstop_VRT_2768
01010733,,Orchard & Kootenai SEC,,43.5932309805742,-116.2434837627838,zoneforstop_VRT_3067
01010617,,Robbins @ Idaho Elks Rehab Hospital SEM,,43.616511250400364,-116.19202654832313,zoneforstop_VRT_4262
01010313,,Five Mile & Country Squire SWM,,43.636326547282586,-116.31446699147693,zoneforstop_VRT_3125
14050012,,16th Avenue South & 7th Street South SWC,,43.57105851432252,-116.56208550436587,zoneforstop_VRT_3731
01010584,,State & Ellens Ferry SEC,,43.65847876268262,-116.26330641095286,zoneforstop_VRT_4250
01010560,,Taft & 36th SEM,,43.64795711456957,-116.23290760921407,zoneforstop_VRT_2787
01010427,,Beacon & Parkcenter SWC,,43.598578041622645,-116.18721526481787,zoneforstop_VRT_53
01050243,,Overland & Silverstone SEC,,43.59025999991,-116.34929783642326,zoneforstop_VRT_3248
01010681,,Nez Perce & Latah SWC,,43.58717245325154,-116.2288019846578,zoneforstop_VRT_774
01011009,,Airport & Vista NEC,,43.5695157101541,-116.21462239218761,zoneforstop_VRT_4233
01010767,,Milwaukee & Chesterfield NEC,,43.639981254498274,-116.28407563731419,zoneforstop_VRT_3143
14010906,,Cleveland & 16th SWC,,43.658611566234065,-116.68162886637559,zoneforstop_VRT_4197
01010974,,Maple Grove & Shoup NEC,,43.60025997682124,-116.2939998378558,zoneforstop_VRT_4241
01010697,,Latah & Kipling SEC,,43.6052963348361,-116.22840570904309,zoneforstop_VRT_2990
01010996,,Bown & Riverwalk SEC,,43.57363012321756,-116.15534575248041,zoneforstop_VRT_4059
01010986,,Development & Airport SWC,,43.568020000000004,-116.20755421401181,zoneforstop_VRT_4235
01010270,,Emerald & Maple Grove SEC,,43.61085295657711,-116.29345062924737,zoneforstop_VRT_2748
01010806,,Barrister & Bethel NEC,,43.60677000009,-116.27069167792776,zoneforstop_VRT_3010
01010315,,Five Mile & Edna SEC,,43.640966361040185,-116.31412138551183,zoneforstop_VRT_3104
01010861,,State & 21st NEC,,43.626340683406845,-116.21505476136947,zoneforstop_VRT_2760
01010853,,Cole & McMullen SWC,,43.59824651948088,-116.27430427639347,zoneforstop_VRT_2818
01010278,,Maple Grove & Pembrook SEC,,43.64009954353429,-116.29413563706933,zoneforstop_VRT_1435
01010396,,Overland & Cole SEC,,43.59000999991001,-116.27228625118795,zoneforstop_VRT_2891
01010787,,Fairview & Cole NWC,,43.61941998084796,-116.27483742226896,zoneforstop_VRT_4243
01010669,,Vista & Rose Hill NWC,,43.60021234620494,-116.2137282013609,zoneforstop_VRT_2925
01010748,,Westpark & Milwaukee NWM,,43.60722529705794,-116.28347980756729,zoneforstop_VRT_3158
14050081,,Caldwell @ D.L. Evans Bank NEM,,43.60331615411165,-116.59970984174561,zoneforstop_VRT_3183
01010667,,Vista & Cassia NWC,,43.59733498230871,-116.21376272348384,zoneforstop_VRT_2926
01010107,,Capitol & River NEC,,43.6105434102283,-116.20645312648386,zoneforstop_VRT_2942
01010749,,Milwaukee @ Home Depot SEM,,43.615637078292266,-116.2840278939818,zoneforstop_VRT_3147
01010956,,Linden & Broadway NEC,,43.57905975118344,-116.19294948603549,zoneforstop_VRT_3998
01010631,,Main & 13th SWC,,43.618624677910475,-116.20964443522621,zoneforstop_VRT_1270
01010690,,Roosevelt & Rose Hill SEC,,43.600582734378065,-116.23340571878104,zoneforstop_VRT_1214
01010622,,Main & 18th NEC,,43.62159235140369,-116.21504594119476,zoneforstop_VRT_3049
14010069,,Caldwell & Yellow Pine SWC,,43.61475905907074,-116.6169080031045,zoneforstop_VRT_3193
14050887,,CWI - Sundance & Caldwell SEM,,43.60929,-116.6101657007907,zoneforstop_VRT_1837
01010530,,Overland & Annett SEC,,43.589749999910005,-116.20337493717648,zoneforstop_VRT_2901
14010046,,Cleveland & 38th NEM,,43.64225102824835,-116.65719337987872,zoneforstop_VRT_3239
01011020,,Boise & Apple SEC,,43.57812878259729,-116.17280847753133,zoneforstop_VRT_4208
01010003,,Gary & Bunch SEC,,43.66947350576436,-116.2788805790953,zoneforstop_VRT_4246
01010281,,Maple Grove & Goddard SEC,,43.644963430763575,-116.29408562700041,zoneforstop_VRT_2719
01010401,,Overland & Sage NEC,,43.59008777200516,-116.26099630169776,zoneforstop_VRT_2884
14010035,,Cleveland & 11th SWC,,43.66227804498985,-116.68703042260194,zoneforstop_VRT_3271
01030339,,Glenwood & Chinden NEC,,43.64917942905031,-116.27964561827068,zoneforstop_VRT_2722
01010317,,Five Mile & Goldenrod SEC,,43.64459483370492,-116.31408777645564,zoneforstop_VRT_3105
01010941,,Linden & Gekeler SEC,,43.578784473427284,-116.18319649461806,zoneforstop_VRT_4000
14050089,,Caldwell & Canyon SWC,,43.58836123574181,-116.5781880175786,zoneforstop_VRT_943
01010400,,Overland & Sage SWC,,43.589909999910006,-116.26150353770635,zoneforstop_VRT_1728
01010569,,State & 35th NWC,,43.63854350552886,-116.23292333571257,zoneforstop_VRT_4253
01010635,,Beacon & Broadway SWC,,43.598299999910004,-116.19376026058445,zoneforstop_VRT_51
01010279,,Maple Grove & Edna NWC,,43.64140381263841,-116.29437791635578,zoneforstop_VRT_2741
01010863,,State & 26th NEC,,43.631065285798186,-116.2217080464803,zoneforstop_VRT_2762
01010674,,Owyhee & Cherry SEC,,43.580651979328344,-116.22349575993009,zoneforstop_VRT_881
01010263,,Emerald & Five Mile SEC,,43.60987544108381,-116.31383670739314,zoneforstop_VRT_3135
01010630,,Main & 15th SWC,,43.61979932377796,-116.21193867413722,zoneforstop_VRT_3073
01010333,,West YMCA,,43.659246547958666,-116.34103077622379,zoneforstop_VRT_3163
01010683,,Nez Perce & Roosevelt NEC,,43.58734864823704,-116.23339181893634,zoneforstop_VRT_885
01010576,,State & Bloom NWC,,43.65603455270856,-116.25874769576484,zoneforstop_VRT_2915
01010770,,Cole & Mountainview SWM,,43.641605495741125,-116.2743731520655,zoneforstop_VRT_1296
01010788,,Fairview & Cole SEC,,43.619221474050605,-116.27377263864128,zoneforstop_VRT_3150
01010467,,15th & Lemp NWC,,43.63298220792831,-116.20588694490813,zoneforstop_VRT_1529
14050022,,Holly & Sherman SWC,,43.56515893154669,-116.56442075694486,zoneforstop_VRT_3732
01010670,,Main & 11th SWC,,43.61738249335525,-116.20718470370464,zoneforstop_VRT_1209
01010316,,Five Mile & Edna NWC,,43.64145673543395,-116.31436436574,zoneforstop_VRT_3122
14050011,,12th & Iowa NEC,,43.554610734548234,-116.57275275381821,zoneforstop_VRT_3725
01010117,,Main & 1st SWC,,43.611545681595125,-116.19566597326585,zoneforstop_VRT_3030
01030899,,Chinden & 36th NEC,,43.62380215554528,-116.2407665140064,zoneforstop_VRT_3087
01010602,,State & 11th SWC,,43.620503997804235,-116.2043787586978,zoneforstop_VRT_2794
01010839,,Orchard & Irving NEC,,43.6155375535282,-116.24330778046829,zoneforstop_VRT_3070
01010760,,Milwaukee & Ustick SEM,,43.63316144844704,-116.2839846982981,zoneforstop_VRT_3140
01010972,,Collister & Clearview NEC,,43.658771442447254,-116.24824559840215,zoneforstop_VRT_3945
01010372,,Collister & Shirley NWM,,43.66144933659537,-116.24848397687308,zoneforstop_VRT_2783
01010578,,State & Pierce Park NWC,,43.66192074100928,-116.26881115172743,zoneforstop_VRT_2917
14010026,,Franklin & Aviation SWC,,43.6626476123147,-116.65340182278024,zoneforstop_VRT_3794
01010646,,Federal Way & Overland NEM,,43.59073715564249,-116.20300372566815,zoneforstop_VRT_2903
14050390,,Bird & Fern NEC,,43.56079078954367,-116.56151750512296,zoneforstop_VRT_3221
01010297,,Five Mile & Emerald NWC,,43.61242106306159,-116.31444745815736,zoneforstop_VRT_3134
01010803,,Fairview & Allumbaugh NEC,,43.61928000009,-116.26607961952686,zoneforstop_VRT_3119
14050171,,Garrity & 39th NWC,,43.59197445731045,-116.52332826828389,zoneforstop_VRT_1143
01010934,,Cole & Ustick SWM,,43.63314278510986,-116.27437434853361,zoneforstop_VRT_3329
01010249,,Maple Grove & Irving SEC,,43.61546928531963,-116.29399108927844,zoneforstop_VRT_2712
01010545,,Curtis & Franklin SEC,,43.60306934503112,-116.25351571693403,zoneforstop_VRT_341
01010412,,Vista & Targee SEC,,43.58228696076935,-116.21352575655614,zoneforstop_VRT_2936
14050014,,Garrity & Stamm NWC,,43.59477953407445,-116.51761966197968,zoneforstop_VRT_3729
01011003,,Emerald & Raymond SEC,,43.61187364149285,-116.26323164496978,zoneforstop_VRT_4198
01010452,,Law & Bergeson NEM,,43.56805331199216,-116.16329578591956,zoneforstop_VRT_2802
01010109,,Capitol & Front SEC,,43.61335885456505,-116.20373820842494,zoneforstop_VRT_220
01010524,,Overland & Owyhee SWC,,43.58973873309606,-116.22377893778926,zoneforstop_VRT_400
01010739,,Targee & Phillippi NEC,,43.58265777157554,-116.24847265491785,zoneforstop_VRT_1240
01010879,,Overland & Cloverdale SWC,,43.590212274876926,-116.33465819092288,zoneforstop_VRT_3249
14010086,,Kimball & Arlington SEC,,43.65951331254085,-116.69571038792925,zoneforstop_VRT_3790
01010548,,Phillippi & Cassia NWC,,43.59723797891533,-116.24870150150966,zoneforstop_VRT_1250
01010762,,Cole & Barrister SEC,,43.60682887475921,-116.27401333155105,zoneforstop_VRT_1685
01011028,,State & 18th NWC,,43.62475969348977,-116.21233300754966,zoneforstop_VRT_4053
01010147,,9th & Royal NWC,,43.60869059139682,-116.20981243604554,zoneforstop_VRT_377
01010677,,Owyhee & Lemhi NWC,,43.58389527450565,-116.2237449989781,zoneforstop_VRT_2968
01011031,,Fort & Garrison NEC,,43.615347319347336,-116.1924897481404,zoneforstop_VRT_4187
14050899,,Birch & Driver NEC,,43.61239355893661,-116.5232806570841,zoneforstop_VRT_4273
01010653,,Broadway & Highland NWC,,43.59480440420496,-116.19377426928469,zoneforstop_VRT_2843
01010298,,Five Mile & Emerald SEC,,43.61203772910099,-116.3142056951119,zoneforstop_VRT_3084
01010319,,McMillan & Five Mile SWC,,43.64836999991,-116.31451360881283,zoneforstop_VRT_3169
01010991,,Hill & 26th NEC,,43.64806938440242,-116.22144099018833,zoneforstop_VRT_4093
01010940,,Bridger & Meeker SWM,,43.658759999910004,-116.3374478369957,zoneforstop_VRT_3164
01010785,,Cole & Westwood NWC,,43.62174789536903,-116.27431266829996,zoneforstop_VRT_1280
01010335,,Discovery & Chinden SWC,,43.662128902018075,-116.34290094195075,zoneforstop_VRT_3162
14050226,,12th Avenue South & 4th Street South SWM,,43.57623648705572,-116.56327582973323,zoneforstop_VRT_3209
14050888,,Tiegs @ Micron Center SEM,,43.6037817644413,-116.50926883226346,zoneforstop_VRT_1838
14050183,,16th Avenue North & 3rd Street North SEC,,43.579422332751534,-116.55090293629937,zoneforstop_VRT_3284
01010311,,Five Mile & Ustick SWC,,43.633479098969175,-116.3144843492295,zoneforstop_VRT_3127
01010645,,Federal Way & Protest SEC,,43.59402883353054,-116.20610828475758,zoneforstop_VRT_2904
14050228,,12th Avenue South & 8th Street South NWC,,43.573671878489044,-116.56667688147945,zoneforstop_VRT_3210
01011025,,Elder & Vista NEM,,43.57360521156952,-116.21652665307731,zoneforstop_VRT_4237
01010649,,Broadway & Iowa NEC,,43.584662862819755,-116.19340475911858,zoneforstop_VRT_335
01010862,,State & 23rd NEC,,43.62831607293858,-116.21789777184883,zoneforstop_VRT_2761
01011035,,Warm Springs & Haines SEC,,43.605290266922765,-116.17878365591527,zoneforstop_VRT_4058
01010555,,36th & Shasta NWC,,43.65403652741487,-116.23346016934268,zoneforstop_VRT_2786
01011023,,Parkcenter & Harris Ranch SEC,,43.57176159190203,-116.12647880272318,zoneforstop_VRT_3990
01010687,,Roosevelt & Cassia NWC,,43.5971178830145,-116.23368427406243,zoneforstop_VRT_770
01010468,,15th & Irene NWC,,43.63647543292954,-116.20592435542991,zoneforstop_VRT_4259
01010703,,Americana & Shoreline SEC,,43.616421169163786,-116.22021912852179,zoneforstop_VRT_3023
01010599,,State & 15th SWC,,43.62300927859673,-116.20931732064544,zoneforstop_VRT_2792
01011041,,State & Arthur SWC,,43.64212738071342,-116.23859039348966,zoneforstop_VRT_4251
01010745,,Emerald & Milwaukee SEC,,43.61118567203252,-116.28354471028493,zoneforstop_VRT_2750
01010776,,Cole & Settlers NWC,,43.630481280320154,-116.27435281826479,zoneforstop_VRT_1299
01010525,,Overland & Owyhee NEC,,43.589922110381,-116.22348841308076,zoneforstop_VRT_1715
01010413,,Vista & Targee NWC,,43.58262715228855,-116.21378050032706,zoneforstop_VRT_2930
01010676,,Owyhee & Lemhi SEC,,43.583701703024225,-116.22349415972387,zoneforstop_VRT_2982
01010284,,Goddard & Milwaukee SEC,,43.64472769027923,-116.28367973403307,zoneforstop_VRT_4244
01010624,,Main & 27th NEC,,43.62190000009,-116.22366584836186,zoneforstop_VRT_3051
01030922,,Alworth & Kent NEC,,43.64850674996303,-116.2739733346242,zoneforstop_VRT_3967
01010597,,State & 21st SWC,,43.62645569988281,-116.21555499465775,zoneforstop_VRT_1380
01010942,,Law & Wright SEM,,43.57129152568322,-116.16328577924114,zoneforstop_VRT_2804
14010048,,Cleveland @ Walmart Entrance SWC,,43.63315391583253,-116.64419490024571,zoneforstop_VRT_3281
01010975,,Commerce & Transport NEC,,43.56432000009,-116.20219977627204,zoneforstop_VRT_4002
01010954,,River & 13th NWC,,43.615366830034304,-116.21490634195384,zoneforstop_VRT_4215
01010164,,Broadway & Park NEM,,43.60730756849206,-116.19327253061378,zoneforstop_VRT_3212
14010060,,Kimball & Dearborn NWC,,43.663764772757915,-116.69059673379496,zoneforstop_VRT_1705
01010951,,Linden & Gekeler NEC,,43.57896593070405,-116.18327654086765,zoneforstop_VRT_3997
01010754,,Milwaukee & Holt NEC,,43.62303930472328,-116.2841961479954,zoneforstop_VRT_3136
01010521,,Overland & Roosevelt SEC,,43.58968999991001,-116.23341544490239,zoneforstop_VRT_1731
01010373,,Collister & Johns Landing NWC,,43.65945276975364,-116.24848845595302,zoneforstop_VRT_2784
01010608,,9th & State NWC,,43.619421392413216,-116.20173556477417,zoneforstop_VRT_1539
01010855,,Cole & Althea NWC,,43.5953375072573,-116.27428675981325,zoneforstop_VRT_1662
01010397,,Overland & Cole NEC,,43.59034638980555,-116.2717762925072,zoneforstop_VRT_2847
01010925,,Overland & Vinnell NWC,,43.590358017542734,-116.28732889509402,zoneforstop_VRT_2827
01010903,,Boise & Protest SWC,,43.59806626576473,-116.20504601387093,zoneforstop_VRT_2865
14050090,,Caldwell & Canyon NEC,,43.588295383531914,-116.577637966295,zoneforstop_VRT_3227
01010727,,Orchard & Franklin SEC,,43.60247983609608,-116.24338571486206,zoneforstop_VRT_1261
01030827,,Chinden & Kent NWC,,43.64678424736222,-116.27520015365718,zoneforstop_VRT_3160
01010920,,Overland & Entertainment SEM,,43.590102013873135,-116.27856905905294,zoneforstop_VRT_2833
01010706,,Shoreline & 14th SEC,,43.61470598321442,-116.21878935925301,zoneforstop_VRT_2999
01010577,,State & Ellens Ferry NEC,,43.65915052508274,-116.26407510059563,zoneforstop_VRT_2916
01010439,,Apple & Lexington NEM,,43.58170860513584,-116.173205553675,zoneforstop_VRT_203
01010549,,Catalpa & Sycamore NWM,,43.65559815254868,-116.2454566229528,zoneforstop_VRT_2771
01010557,,36th & Pinehurst NWC,,43.65062659962258,-116.23348438472632,zoneforstop_VRT_1467
01010532,,Overland & Latah NEC,,43.589900000090005,-116.22840474316683,zoneforstop_VRT_1716
01030831,,Chinden & 47th SWC,,43.6378791631915,-116.2609152468425,zoneforstop_VRT_3101
01030345,,Glenwood & Riverside SEC,,43.66335870244834,-116.27914796879384,zoneforstop_VRT_2725
01010726,,Orchard & Franklin NWC,,43.60282637228179,-116.24363192465124,zoneforstop_VRT_3056
01010732,,Orchard & Kootenai NWC,,43.5936286006397,-116.24373426685665,zoneforstop_VRT_3058
14050113,,16th Avenue South & 2nd Street South SEC,,43.57539343761227,-116.55614888608635,zoneforstop_VRT_3337
01010924,,Maple Grove & Hackamore SWC,,43.59424573589114,-116.29422084419629,zoneforstop_VRT_4239
01010184,,Elder @ Wells Fargo SEM,,43.573400800021915,-116.22073480301329,zoneforstop_VRT_2970
01010442,,Boise & Apple NEC,,43.57821343091255,-116.172517679529,zoneforstop_VRT_4207
01010843,,Emerald & Hartman NWC,,43.611986852692155,-116.25907493418691,zoneforstop_VRT_3005
14050910,,Holly & Roosevelt SEC,,43.56541290776053,-116.56423707545969,zoneforstop_VRT_4049
01010375,,Collister & Catalpa NWC,,43.65566125162363,-116.24852439515445,zoneforstop_VRT_2785
01010119,,Main & 5th SWC,,43.61384501567606,-116.20019878403622,zoneforstop_VRT_3028
01011040,,State & Northgate Shopping Center,,43.66669191263395,-116.27634399077749,zoneforstop_VRT_4056
14050392,,Holly & Sheridan NEM,,43.56477180149596,-116.56343213009087,zoneforstop_VRT_838
01010314,,Five Mile & Covered Wagon NWC,,43.639129849558465,-116.31440267863611,zoneforstop_VRT_3124
14050172,,Garrity & 39th SEC,,43.59210421025535,-116.52258956894637,zoneforstop_VRT_3290
01010981,,Cole & Emerald SWC,,43.61192158560187,-116.27435430464809,zoneforstop_VRT_4018
14050083,,Caldwell & Flamingo SEC,,43.597882484223845,-116.59213881195558,zoneforstop_VRT_3202
01010671,,Owyhee & Pasadena NWC,,43.57539713672181,-116.22370562758711,zoneforstop_VRT_779
01010251,,Maple Grove & Fairview SWC,,43.61877287562242,-116.29426431881134,zoneforstop_VRT_2746
01010327,,McMillian & Cloverdale NEC,,43.648573048370366,-116.33416011557918,zoneforstop_VRT_3109
01010420,,Vista & Spaulding SEC,,43.58601615642508,-116.21353789865132,zoneforstop_VRT_2938
01010402,,Overland & Rand SWC,,43.58986206396078,-116.25826486863473,zoneforstop_VRT_1729
01010719,,Emerald & Orchard NWC,,43.61170000009,-116.24402917921549,zoneforstop_VRT_3003
01010734,,Orchard & Clark NWC,,43.59168787380332,-116.24371534232296,zoneforstop_VRT_1236
01010519,,Old Penitentary & Warm Springs NEC,,43.601148220623855,-116.1681044483734,zoneforstop_VRT_1649
01010700,,Latah & Cresent Rim SWM,,43.61083558025224,-116.22862368657162,zoneforstop_VRT_2953
01010507,,Warm Springs & Coston NEC,,43.60488734799216,-116.17731140216962,zoneforstop_VRT_3041
01010308,,Five Mile & Java NWC,,43.62790646582056,-116.31437863406668,zoneforstop_VRT_3129
01010659,,Broadway & Targee NWC,,43.58263777261802,-116.19382236961907,zoneforstop_VRT_2846
14010011,,10th & Dearborn SWC,,43.66211544848354,-116.68883069892928,zoneforstop_VRT_3188
14010005,,Enterprise & Smeed SEM,,43.66126325387747,-116.64101314998437,zoneforstop_VRT_3795
01010536,,Overland & Orchard NWC,,43.58986000009,-116.24403196539282,zoneforstop_VRT_4229
01010587,,State & Collister SWC,,43.6495433109461,-116.24881310943364,zoneforstop_VRT_2951
01010848,,Rifleman & Milwaukee NEC,,43.61284000009,-116.28377683460667,zoneforstop_VRT_3146
14050893,,Franklin & Orah NWC,,43.61778386245112,-116.5533068540729,zoneforstop_VRT_4037
01010424,,Overland & Vista NEC,,43.589968216628215,-116.21345815898935,zoneforstop_VRT_1713
14050086,,Caldwell & Horton NEM,,43.5945018480141,-116.58681008533067,zoneforstop_VRT_3229
14050896,,Birch & Driver SEC,,43.61221521158312,-116.52315278341636,zoneforstop_VRT_4274
01010551,,Catalpa & Tamarack SWC,,43.65539092215698,-116.23976321875611,zoneforstop_VRT_1464
01030915,,Alworth & 50th SEC,,43.64537512473293,-116.26336903922335,zoneforstop_VRT_4268
01010537,,Orchard & Overland NEC,,43.59021721696853,-116.24347165529315,zoneforstop_VRT_3065
01030836,,Chinden & 37th SWC,,43.625048283997586,-116.24286866768368,zoneforstop_VRT_1415
14010041,,Cleveland & Linden SWM,,43.647390210896845,-116.66505887822439,zoneforstop_VRT_3277
01010079,,Warm Springs & Eckert SWM,,43.56955146857076,-116.12171565578124,zoneforstop_VRT_3991
01010310,,Five Mile & Lancelot SEC,,43.632004471057115,-116.31419384073251,zoneforstop_VRT_3099
01010725,,Orchard & Bethel SEC,,43.60610017479761,-116.24334570738223,zoneforstop_VRT_1262
01050264,,Overland & Ten Mile SEM,,43.58485999991001,-116.4323350042111,zoneforstop_VRT_3180
01050263,,Overland & Ten Mile NEC,,43.58503308958424,-116.43349942274736,zoneforstop_VRT_3182
01010922,,Maple Grove & Ardene SEC,,43.58890592451825,-116.29397574289413,zoneforstop_VRT_2829
14050891,,CWI P&R,,43.61133337184922,-116.50899367320876,zoneforstop_VRT_3325
01010250,,Maple Grove & Irving NWC,,43.61615305506183,-116.29423431339495,zoneforstop_VRT_2747
01010651,,Broadway & Boise NEC,,43.59106544996771,-116.19334920477661,zoneforstop_VRT_2872
14010032,,Blaine & 15th NEC,,43.6598570945951,-116.6812401492414,zoneforstop_VRT_3262
01010563,,Taft & 28th SWC,,43.6479872720995,-116.22349343994185,zoneforstop_VRT_4261
14010068,,Franklin Road P&R NWM,,43.66275066476606,-116.66901199995999,zoneforstop_VRT_2271
01010280,,Maple Grove & Oakmont NWC,,43.64451326762918,-116.2943443720676,zoneforstop_VRT_2740
01010523,,Overland & Latah SEC,,43.58971999991001,-116.22843190055272,zoneforstop_VRT_1732
01010621,,Idaho & 15th NEC,,43.62050763911881,-116.21066072500231,zoneforstop_VRT_3048
14050905,,Birch & Franklin NEC,,43.61243000009,-116.5525653713683,zoneforstop_VRT_4202
01030895,,Adams & 44th NEC,,43.63695132882759,-116.25038025296423,zoneforstop_VRT_1424
01010960,,Beacon & Division NWM,,43.5986323364133,-116.18897653172291,zoneforstop_VRT_4206
01010604,,State & 15th NEC,,43.62282272625165,-116.20851341736416,zoneforstop_VRT_2758
01010265,,Emerald & Armstrong SEC,,43.60986089252016,-116.30938292566346,zoneforstop_VRT_3137
01011049,,Parkcenter & Barber Valley SEC,,43.57736248793401,-116.14847187572435,zoneforstop_VRT_4204
01010728,,Orchard & Ponder NWC,,43.60041158910141,-116.24364246211508,zoneforstop_VRT_1233
01010639,,Beacon & Lincoln NEC,,43.59849853110654,-116.20215569065748,zoneforstop_VRT_213
01010167,,Front & 3rd NEC,,43.610807976686566,-116.19920793663138,zoneforstop_VRT_1159
01010636,,Beacon & Broadway NEC,,43.59849820826872,-116.19326002448133,zoneforstop_VRT_2812
1030344,,Glenwood @ Hawks Stadium SWM,,43.65528372762306,-116.27985779363918,zoneforstop_VRT_2736
01010300,,Five Mile & Susan NWC,,43.61610568304194,-116.31444431329703,zoneforstop_VRT_3132
01010606,,State & 9th SWC,,43.61928105619349,-116.20194087145761,zoneforstop_VRT_1385
01010505,,Warm Springs & Pierce NEC,,43.60602728477776,-116.18001087195444,zoneforstop_VRT_1634
01010798,,Fairview & Larch NEC,,43.61908000009,-116.2496417015787,zoneforstop_VRT_3115
01050084,,Overland & Black Marlin SEC,,43.589999999910006,-116.39794707298313,zoneforstop_VRT_2372
01030911,,Clay & 36th NWC,,43.62523300122407,-116.23931592088822,zoneforstop_VRT_4065
01010638,,Beacon & Manitou SWC,,43.59832888786902,-116.1987372011365,zoneforstop_VRT_47
14050006,,12th & Amity NEC,,43.561628140259536,-116.57272579916734,zoneforstop_VRT_3775
01010715,,Emerald & Roosevelt SWC,,43.61149999991001,-116.23368444341963,zoneforstop_VRT_1201
01010153,,Capitol & University SEC,,43.60516908219825,-116.21155801308016,zoneforstop_VRT_2941
14050003,,12th & Sherman NWC,,43.56576528656018,-116.57281364209261,zoneforstop_VRT_3776
01010663,,Vista & Sunrise Rim SEC,,43.573552017168225,-116.21439086481915,zoneforstop_VRT_748
01010648,,Broadway & Targee NEM,,43.5824622882234,-116.19342880706262,zoneforstop_VRT_2870
01010498,,Beacon & Grant SWC,,43.598321543273265,-116.19629360681816,zoneforstop_VRT_49
01010421,,Vista & Spaulding NWC,,43.58650815297947,-116.21378667059547,zoneforstop_VRT_2929
01010112,,Idaho & 3rd NEC,,43.61342376126301,-116.19667563606754,zoneforstop_VRT_745
01010334,,West YMCA,,43.65943098227071,-116.34078470892395,zoneforstop_VRT_3330
01010867,,Vinnell @ Social Security SWM,,43.59262310553648,-116.28623426478045,zoneforstop_VRT_2832
01010650,,Broadway & Gallaher SEC,,43.58787699681769,-116.19337574501822,zoneforstop_VRT_2871
01050904,,Ten Mile & Vanguard NEM,,43.598859354620195,-116.43378095393753,zoneforstop_VRT_4024
14050013,,16th Avenue North & 7th Street North NWC,,43.58250664539136,-116.54732833821117,zoneforstop_VRT_1148
01011050,,Parkcenter & Barber Valley NWC,,43.577136909317886,-116.14942880987292,zoneforstop_VRT_4267
01010256,,Maple Grove & Workland NWC,,43.62428040933429,-116.29433269127631,zoneforstop_VRT_1521
01010864,,State & 31st NEC,,43.63446260080011,-116.22692140083468,zoneforstop_VRT_2908
01010005,,Gary & Saxton SEC,,43.67148091960437,-116.27908073749329,zoneforstop_VRT_4186
01030908,,Adams & 40th SWC,,43.63208159531842,-116.24388068489698,zoneforstop_VRT_3956
01010550,,Catalpa & Sycamore SWC,,43.65542114964392,-116.24494583302052,zoneforstop_VRT_1463
14050055,,Caldwell & Homedale SEC,,43.618662468444505,-116.62262406053635,zoneforstop_VRT_3192
01010255,,Maple Grove & Landmark SEC,,43.623268045974164,-116.29406567189338,zoneforstop_VRT_2714
14050230,,12th Avenue South & 13th Street South,,43.56991397901394,-116.57148228614003,zoneforstop_VRT_1754
01010282,,Goddard & Kingswood SWC,,43.644950223970056,-116.28985982655308,zoneforstop_VRT_2720
01010673,,Owyhee & Hillcrest NWC,,43.57751506104264,-116.22364397838624,zoneforstop_VRT_778
01010423,,Vista & Overland NWC,,43.59013264710815,-116.21380425963845,zoneforstop_VRT_2928
01010533,,Overland & Roosevelt NEC,,43.58987000009,-116.23342583844271,zoneforstop_VRT_1717
01010666,,Vista & Cassia NEC,,43.597325259958126,-116.21351572550931,zoneforstop_VRT_755
14050901,,Franklin & Tiegs SEC,,43.604929999910006,-116.5091908484236,zoneforstop_VRT_4191
01010500,,Warm Springs & Bruce NEC,,43.60935921712981,-116.18768107811395,zoneforstop_VRT_3043
01010918,,Hackmore & Allante SEM,,43.5949736555083,-116.2917849132051,zoneforstop_VRT_2831
01010790,,Fairview & Allumbaugh SWC,,43.61910326923208,-116.26635841870858,zoneforstop_VRT_1282
01010665,,Vista & Kootenai NWC,,43.59371788559492,-116.21378426704104,zoneforstop_VRT_2927
01010287,,Goddard & Glenwood NWM,,43.64418865991201,-116.27948376111173,zoneforstop_VRT_2738
01010627,,Fairview & 27th SWC,,43.6202948351167,-116.22429550679597,zoneforstop_VRT_3071
14050080,,Caldwell & Karcher Mall Entrance SWC,,43.60279024629899,-116.59924361139488,zoneforstop_VRT_939
14050880,,16th Avenue North & 2nd Street North NWC,,43.57885518033779,-116.55201540850416,zoneforstop_VRT_1150
01010793,,Fairview & Hartman SWC,,43.61899309848564,-116.25881603288823,zoneforstop_VRT_1285
01010434,,Parkcenter & River Run SEC,,43.589368772372985,-116.17406093178394,zoneforstop_VRT_205
01010962,,15th & Sherman NEC,,43.62853026753705,-116.20570566100918,zoneforstop_VRT_4180
01010655,,Broadway & Beacon SWC,,43.59787572807137,-116.19367049981614,zoneforstop_VRT_2842
01010979,,Bergeson & Minuteman NWC,,43.56790000009,-116.16755605304299,zoneforstop_VRT_4210
01010923,,Maple Grove & Barnes SEC,,43.594515505397496,-116.29399573131192,zoneforstop_VRT_4240
01010328,,McMillan & Cloverdale SEC,,43.64839913309495,-116.33375590771047,zoneforstop_VRT_3167
14050082,,Marketplace & Karcher Connector NWC,,43.61007361606124,-116.59133933200404,zoneforstop_VRT_3780
01010595,,State & 27th SEC,,43.63062658511538,-116.22165856317487,zoneforstop_VRT_2789
01010272,,Maple Grove & Canterbury SEC,,43.63047629060955,-116.29412795322848,zoneforstop_VRT_2716
01010006,,Gary & Saxton NWC,,43.671718026206584,-116.27932343233421,zoneforstop_VRT_1506
01030346,,Glenwood & Riverside NWC,,43.66377665943916,-116.27938735956805,zoneforstop_VRT_1508
01030837,,Chinden & 33rd SWC,,43.62193351001357,-116.23847810116925,zoneforstop_VRT_1416
01010841,,Emerald & Curtis NWC,,43.611731960250935,-116.25423029413007,zoneforstop_VRT_4223
01010592,,State & Clover SEC,,43.63855588242743,-116.2332900272547,zoneforstop_VRT_4254
01011019,,Development & Airport NEC,,43.56855588174857,-116.20750608392112,zoneforstop_VRT_4281
01010998,,River & 13th SEC,,43.61482904513487,-116.21482292311762,zoneforstop_VRT_4216
01010963,,Castle & Pierce Park SEC,,43.666439019286706,-116.26827153098273,zoneforstop_VRT_4095
01011015,,Hill & Smith NWM,,43.64508832169321,-116.21677989819428,zoneforstop_VRT_4181
01010004,,Gary & Bunch NWC,,43.66985359608981,-116.27930619686826,zoneforstop_VRT_1409
01010162,,Broadway & University SEC,,43.60077097846338,-116.19341571839215,zoneforstop_VRT_3312
14010014,,10th & Logan SWC,,43.65479206647929,-116.69322439335396,zoneforstop_VRT_3189
01010458,,Bergeson & Federal Way NEC,,43.568332756621665,-116.18215411591923,zoneforstop_VRT_95
01010913,,Pro Tech @ Frank Church HS NWC,,43.57164,-116.28380577852239,zoneforstop_VRT_2839
14050004,,12th Avenue South & 13th Street South NEC,,43.56981365289074,-116.57119867103113,zoneforstop_VRT_3777
01030337,,Chinden & Garrett SWC,,43.656049455772326,-116.29942324621673,zoneforstop_VRT_1362
01010865,,1st & Idaho SEC,,43.61206125579616,-116.19451972620844,zoneforstop_VRT_1619
01050907,,Franklin & Black Cat SWC,,43.604723679784534,-116.45639999896929,zoneforstop_VRT_4043
01010202,,Federal Way & Findley NEM,,43.571314971747306,-116.18692112028897,zoneforstop_VRT_2867
01010629,,Fairview & 17th SWC,,43.620461106497594,-116.21523445117276,zoneforstop_VRT_3072
01010594,,State & 29th SWC,,43.632241061076996,-116.22412013224948,zoneforstop_VRT_2966
01030834,,Chinden & 41st SEC,,43.62979586730411,-116.24951603667978,zoneforstop_VRT_3103
01010403,,Overland & Rand NEC,,43.590038883681025,-116.25787530584327,zoneforstop_VRT_1722
01010968,,Commerce & Transport SEM,,43.564139999910005,-116.20113350377886,zoneforstop_VRT_4236
01010154,,University & Earle SWC,,43.60493488423648,-116.20973072928807,zoneforstop_VRT_3321
01010429,,Parkcenter & Mallard SWC,,43.596622643821696,-116.1781249402949,zoneforstop_VRT_55
14010028,,Kimball & Dearborn SEC,,43.663432943971856,-116.69068731771898,zoneforstop_VRT_3791
01010618,,8th & Franklin SEC,,43.620045735945524,-116.19907486822788,zoneforstop_VRT_2876
14050018,,Sunny Ridge & Maryland SWC,,43.54945319359121,-116.56290677596758,zoneforstop_VRT_3735
01010672,,Owyhee & Catalina SEC,,43.57645542923612,-116.2234650610224,zoneforstop_VRT_880
01030828,,Chinden & Kent SWC,,43.64649517794508,-116.27507023988687,zoneforstop_VRT_3159
14050909,,Birch & Franklin SEC,,43.612249999910006,-116.5523449053706,zoneforstop_VRT_4203
01010801,,Fairview & Liberty NEC,,43.61921557346303,-116.26094012205499,zoneforstop_VRT_1592
01010705,,Shoreline & 14th SWM,,43.61473334873648,-116.21908081877503,zoneforstop_VRT_3024
01010321,,McMillian & Farrow NEC,,43.64856000009,-116.31905861198504,zoneforstop_VRT_3107
